[
  {"name": "Ang Mo Kio", "latitude": 1.369115, "longitude": 103.845436},
  {"name": "Bedok", "latitude": 1.3236, "longitude": 103.9273},
  {"name": "Bishan", "latitude": 1.3500, "longitude": 103.8500},
  {"name": "Boon Lay", "latitude": 1.3367, "longitude": 103.7037},
  {"name": "Bukit Batok", "latitude": 1.3491, "longitude": 103.7497},
  {"name": "Bukit Merah", "latitude": 1.2759, "longitude": 103.8167},
  {"name": "Bukit Panjang", "latitude": 1.3784, "longitude": 103.7618},
  {"name": "Bukit Timah", "latitude": 1.3528, "longitude": 103.7725},
  {"name": "Central Water Catchment", "latitude": 1.375, "longitude": 103.8},
  {"name": "Changi", "latitude": 1.3675, "longitude": 103.9911},
  {"name": "Choa Chu Kang", "latitude": 1.3854, "longitude": 103.7442},
  {"name": "Clementi", "latitude": 1.3151, "longitude": 103.7640},
  {"name": "City", "latitude": 1.290270, "longitude": 103.851959},
  {"name": "Geylang", "latitude": 1.3167, "longitude": 103.8833},
  {"name": "Hougang", "latitude": 1.3711, "longitude": 103.8863},
  {"name": "Jalan Bahar", "latitude": 1.3483, "longitude": 103.6981},
  {"name": "Jurong East", "latitude": 1.3331, "longitude": 103.7430},
  {"name": "Jurong Island", "latitude": 1.2700, "longitude": 103.7000},
  {"name": "Jurong West", "latitude": 1.3521, "longitude": 103.7170},
  {"name": "Kallang", "latitude": 1.3125, "longitude": 103.8625},
  {"name": "Lim Chu Kang", "latitude": 1.4167, "longitude": 103.7167},
  {"name": "Mandai", "latitude": 1.4180, "longitude": 103.8198},
  {"name": "Marine Parade", "latitude": 1.3030, "longitude": 103.9050},
  {"name": "Novena", "latitude": 1.3200, "longitude": 103.8430},
  {"name": "Pasir Ris", "latitude": 1.3736, "longitude": 103.9492},
  {"name": "Paya Lebar", "latitude": 1.3183, "longitude": 103.8925},
  {"name": "Pioneer", "latitude": 1.3120, "longitude": 103.6780},
  {"name": "Pulau Tekong", "latitude": 1.4167, "longitude": 104.0333},
  {"name": "Pulau Ubin", "latitude": 1.4167, "longitude": 103.9670},
  {"name": "Punggol", "latitude": 1.4050, "longitude": 103.9020},
  {"name": "Queenstown", "latitude": 1.2944, "longitude": 103.8020},
  {"name": "Seletar", "latitude": 1.4167, "longitude": 103.8667},
  {"name": "Sembawang", "latitude": 1.4500, "longitude": 103.8200},
  {"name": "Sengkang", "latitude": 1.3911, "longitude": 103.8950},
  {"name": "Serangoon", "latitude": 1.3500, "longitude": 103.8667},
  {"name": "Sentosa", "latitude": 1.2494, "longitude": 103.8303},
  {"name": "Simei", "latitude": 1.3430, "longitude": 103.9530},
  {"name": "Singapore River", "latitude": 1.2900, "longitude": 103.8460},
  {"name": "Sungei Kadut", "latitude": 1.4250, "longitude": 103.7600},
  {"name": "Tampines", "latitude": 1.3496, "longitude": 103.9568},
  {"name": "Tanglin", "latitude": 1.3070, "longitude": 103.8198},
  {"name": "Tengah", "latitude": 1.3780, "longitude": 103.7390},
  {"name": "Toa Payoh", "latitude": 1.3320, "longitude": 103.8470},
  {"name": "Tuas", "latitude": 1.3210, "longitude": 103.6510},
  {"name": "Western Islands", "latitude": 1.2300, "longitude": 103.7000},
  {"name": "Western Water Catchment", "latitude": 1.3500, "longitude": 103.7000},
  {"name": "Woodlands", "latitude": 1.4360, "longitude": 103.7865},
  {"name": "Yishun", "latitude": 1.4294, "longitude": 103.8354}
]

